{
	"locations": {
		"offices": [
			{
				"address": "MacRitchie Reservoir Park",
				"id": "2",
				"image": "1",
				"lat": 1.3416843,
				"lng": 103.8324308,
				"name": "Red Junglefowl; Gallus gallus",
				"phone": "+65",
				"region": "asia-pacific"
			},
			{
				"address": "Jurong Lake Gardens (inc. Chinese Garden and Japanese Garden)",
				"id": "3",
				"image": "1",
				"lat": 1.3388322,
				"lng": 103.729316,
				"name": "Gray Heron; Ardea cinerea",
				"phone": "+65",
				"region": "asia-pacific"
			},
			{
				"address": "Bukit Timah Nature Reserve",
				"id": "4",
				"image": "1",
				"lat": 1.3560841,
				"lng": 103.7766409,
				"name": "Greater Racket-tailed Drongo; Dicrurus paradiseus",
				"phone": "+65",
				"region": "asia-pacific"
			},
			{
				"address": "Clementi Forest and Green Corridor at King Albert Park",
				"id": "5",
				"image": "1",
				"lat": 1.328235,
				"lng": 103.7812114,
				"name": "Red-wattled Lapwing; Vanellus indicus",
				"phone": "+65",
				"region": "asia-pacific"
			},
			{
				"address": "Changi Business Park canal",
				"id": "6",
				"image": "1",
				"lat": 1.3432492,
				"lng": 103.9669349,
				"name": "Changeable Hawk-Eagle; Nisaetus cirrhatus",
				"phone": "+65",
				"region": "asia-pacific"
			},
			{
				"address": "Nanyang Technological University including National Institute of Education",
				"id": "7",
				"image": "1",
				"lat": 1.3483615,
				"lng": 103.6831284,
				"name": "White-throated Kingfisher; Halcyon smyrnensis",
				"phone": "+65",
				"region": "asia-pacific"
			},
			{
				"address": "JurongLake Gardenn",
				"id": "8",
				"image": "1",
				"lat": 1.335914,
				"lng": 103.728027,
				"name": "Brahminy Kite; Haliastur indus",
				"phone": "+65",
				"region": "asia-pacific"
			},
			{
				"address": "Changi Business Park",
				"id": "9",
				"image": "1",
				"lat": 1.3368997,
				"lng": 103.9663669,
				"name": "Common Kingfisher; Alcedo atthis",
				"phone": "+65",
				"region": "asia-pacific"
			},
			{
				"address": "Dover Road (former Transview Golf Course)",
				"id": "10",
				"image": "2",
				"lat": 1.3042743,
				"lng": 103.7777998,
				"name": "Large Hawk-Cuckoo; Hierococcyx sparverioides",
				"phone": "+65",
				"region": "asia-pacific"
			},
			{
				"address": "21 Bishan Street 14, Singapore, SG (1.353, 103.854)",
				"id": "11",
				"image": "1",
				"lat": 1.3529925,
				"lng": 103.8535836,
				"name": "Gray Heron; Ardea cinerea",
				"phone": "+65",
				"region": "asia-pacific"
			},
			{
				"address": "Bishan-Ang Mo Kio Park",
				"id": "12",
				"image": "2",
				"lat": 1.3633753,
				"lng": 103.8442487,
				"name": "Spotted Wood-Owl; Strix seloputo",
				"phone": "+65",
				"region": "asia-pacific"
			},
			{
				"address": "Jurong Lake Gardens",
				"id": "13",
				"image": "1",
				"lat": 1.3359194,
				"lng": 103.7261724,
				"name": "White-breasted Waterhen; Amaurornis phoenicurus",
				"phone": "+65",
				"region": "asia-pacific"
			},
			{
				"address": "Jurong Bird Park, Tanjong Kling SG-Singapore 1.31754, 103.70918",
				"id": "14",
				"image": "2",
				"lat": 1.317544,
				"lng": 103.709178,
				"name": "Pied Imperial-Pigeon; Ducula bicolor",
				"phone": "+65",
				"region": "asia-pacific"
			},
			{
				"address": "Windsor Nature Park including Venus Drive and Venus Loop",
				"id": "15",
				"image": "1",
				"lat": 1.3601265,
				"lng": 103.8259372,
				"name": "Asian Koel; Eudynamys scolopaceus",
				"phone": "+65",
				"region": "asia-pacific"
			},
			{
				"address": "Hindhede Nature Park",
				"id": "16",
				"image": "2",
				"lat": 1.3490121,
				"lng": 103.7754245,
				"name": "Asian Emerald Dove; Chalcophaps indica",
				"phone": "+65",
				"region": "asia-pacific"
			},
			{
				"address": "50 Pasir Ris Coast Industrial Park 6, Singapore, SG (1.394, 103.928)",
				"id": "17",
				"image": "1",
				"lat": 1.3944486,
				"lng": 103.9283566,
				"name": "Zebra Dove; Geopelia striata",
				"phone": "+65",
				"region": "asia-pacific"
			},
			{
				"address": "Marina East (Gardens by the Bay: Bay East / Marina Barrage)",
				"id": "18",
				"image": "1",
				"lat": 1.2817292,
				"lng": 103.8768321,
				"name": "White-throated Kingfisher; Halcyon smyrnensis",
				"phone": "+65",
				"region": "asia-pacific"
			},
			{
				"address": "Dairy Farm Nature Park",
				"id": "19",
				"image": "1",
				"lat": 1.3619833,
				"lng": 103.7777245,
				"name": "White-crested Laughingthrush; Garrulax leucolophus",
				"phone": "+65",
				"region": "asia-pacific"
			},
			{
				"address": "Central Catchment Nature Reserve",
				"id": "20",
				"image": "1",
				"lat": 1.354864,
				"lng": 103.7969908,
				"name": "Arctic Warbler; Phylloscopus borealis",
				"phone": "+65",
				"region": "asia-pacific"
			},
			{
				"address": "1 Amber Gardens, Singapore, SG (1.302, 103.898)",
				"id": "21",
				"image": "1",
				"lat": 1.3018255,
				"lng": 103.8983609,
				"name": "Oriental Pied-Hornbill; Anthracoceros albirostris",
				"phone": "+65",
				"region": "asia-pacific"
			},
			{
				"address": "Upper Seletar Reservoir Park (USRP) inc. Mandai Road Track 7 / Nee Soon Swamp Forest",
				"id": "22",
				"image": "2",
				"lat": 1.3994143000000002,
				"lng": 103.8064628,
				"name": "Purple Heron; Ardea purpurea",
				"phone": "+65",
				"region": "asia-pacific"
			},
			{
				"address": "Lim Chu Kang Lane 3",
				"id": "23",
				"image": "2",
				"lat": 1.4303271,
				"lng": 103.7176538,
				"name": "Little Ringed Plover; Charadrius dubius",
				"phone": "+65",
				"region": "asia-pacific"
			},
			{
				"address": "Lorong halus wetland",
				"id": "24",
				"image": "1",
				"lat": 1.3976197,
				"lng": 103.9243737,
				"name": "Golden-bellied Gerygone; Gerygone sulphurea",
				"phone": "+65",
				"region": "asia-pacific"
			},
			{
				"address": "Jurong Lake Garden",
				"id": "25",
				"image": "1",
				"lat": 1.3322274,
				"lng": 103.7277397,
				"name": "Japanese Sparrowhawk; Accipiter gularis",
				"phone": "+65",
				"region": "asia-pacific"
			},
			{
				"address": "Tuas South (Tuas South Avenue 16 and surrounds)",
				"id": "26",
				"image": "1",
				"lat": 1.2678455,
				"lng": 103.6300717,
				"name": "Savanna Nightjar; Caprimulgus affinis",
				"phone": "+65",
				"region": "asia-pacific"
			},
			{
				"address": "Sungei Buloh Wetland Reserve",
				"id": "27",
				"image": "1",
				"lat": 1.4461788,
				"lng": 103.7286058,
				"name": "Whimbrel; Numenius phaeopus",
				"phone": "+65",
				"region": "asia-pacific"
			},
			{
				"address": "Pasir Ris Park",
				"id": "28",
				"image": "2",
				"lat": 1.3797221,
				"lng": 103.9499173,
				"name": "Green Imperial-Pigeon; Ducula aenea",
				"phone": "+65",
				"region": "asia-pacific"
			},
			{
				"address": "Gardens by the Bay",
				"id": "29",
				"image": "2",
				"lat": 1.281433,
				"lng": 103.8636786,
				"name": "Black-winged Kite; Elanus caeruleus",
				"phone": "+65",
				"region": "asia-pacific"
			},
			{
				"address": "Sungei Buloh Wetland Reserve, Lim Chu Kang SG-Singapore 1.44558, 103.72981",
				"id": "30",
				"image": "2",
				"lat": 1.445584,
				"lng": 103.729812,
				"name": "Copper-throated Sunbird; Leptocoma calcostetha",
				"phone": "+65",
				"region": "asia-pacific"
			},
			{
				"address": "Rifle Range Link",
				"id": "31",
				"image": "2",
				"lat": 1.3560635,
				"lng": 103.8009231,
				"name": "Forest Wagtail; Dendronanthus indicus",
				"phone": "+65",
				"region": "asia-pacific"
			},
			{
				"address": "River Safari",
				"id": "32",
				"image": "1",
				"lat": 1.4018162,
				"lng": 103.7920529,
				"name": "Crimson Sunbird; Aethopyga siparaja",
				"phone": "+65",
				"region": "asia-pacific"
			},
			{
				"address": "Seng Kang East Way",
				"id": "33",
				"image": "1",
				"lat": 1.3942478,
				"lng": 103.8905468,
				"name": "Daurian Starling; Agropsar sturninus",
				"phone": "+65",
				"region": "asia-pacific"
			},
			{
				"address": "Ulu Pandan Park Connector along Sungei Ulu Pandan (Faber Heights)",
				"id": "34",
				"image": "1",
				"lat": 1.3243689,
				"lng": 103.7552047,
				"name": "Striated Heron; Butorides striata",
				"phone": "+65",
				"region": "asia-pacific"
			},
			{
				"address": "Thomson Nature Park",
				"id": "35",
				"image": "1",
				"lat": 1.3828884,
				"lng": 103.8224247,
				"name": "Red Junglefowl; Gallus gallus",
				"phone": "+65",
				"region": "asia-pacific"
			},
			{
				"address": "The Pinnacle Duxton",
				"id": "36",
				"image": "1",
				"lat": 1.2770543,
				"lng": 103.8413151,
				"name": "Pacific Swift; Apus pacificus",
				"phone": "+65",
				"region": "asia-pacific"
			},
			{
				"address": "Pinnacle@Duxton",
				"id": "37",
				"image": "2",
				"lat": 1.2771085,
				"lng": 103.8413358,
				"name": "Chinese Sparrowhawk; Accipiter soloensis",
				"phone": "+65",
				"region": "asia-pacific"
			},
			{
				"address": "Singapore Botanic Gardens",
				"id": "38",
				"image": "2",
				"lat": 1.3148322,
				"lng": 103.8159621,
				"name": "Pied Imperial-Pigeon; Ducula bicolor",
				"phone": "+65",
				"region": "asia-pacific"
			},
			{
				"address": "Neo Tiew Harvest Lane",
				"id": "39",
				"image": "2",
				"lat": 1.4207219,
				"lng": 103.7231171,
				"name": "Red Collared-Dove; Streptopelia tranquebarica",
				"phone": "+65",
				"region": "asia-pacific"
			},
			{
				"address": "SG-Singapore-Bukit Batok-9 Hillview Avenue - 1.3648x103.7639",
				"id": "40",
				"image": "1",
				"lat": 1.364801,
				"lng": 103.763941,
				"name": "Siberian Blue Robin; Larvivora cyane",
				"phone": "+65",
				"region": "asia-pacific"
			},
			{
				"address": "Tampines Eco Green",
				"id": "41",
				"image": "2",
				"lat": 1.3635221,
				"lng": 103.9476371,
				"name": "Rufous Woodpecker; Micropternus brachyurus",
				"phone": "+65",
				"region": "asia-pacific"
			},
			{
				"address": "Maryland Drive",
				"id": "42",
				"image": "2",
				"lat": 1.3206232,
				"lng": 103.7861245,
				"name": "Pied Imperial-Pigeon; Ducula bicolor",
				"phone": "+65",
				"region": "asia-pacific"
			},
			{
				"address": "West Coast Park: west",
				"id": "43",
				"image": "1",
				"lat": 1.2984908,
				"lng": 103.7616163,
				"name": "Zebra Dove; Geopelia striata",
				"phone": "+65",
				"region": "asia-pacific"
			},
			{
				"address": "Bukit Panjang Park",
				"id": "44",
				"image": "1",
				"lat": 1.3830219,
				"lng": 103.7653578,
				"name": "Changeable Hawk-Eagle; Nisaetus cirrhatus",
				"phone": "+65",
				"region": "asia-pacific"
			},
			{
				"address": "11 Spingwood Walk, Pasir Panjang SG-Singapore 1.27880, 103.79030",
				"id": "45",
				"image": "1",
				"lat": 1.278803,
				"lng": 103.790297,
				"name": "Common Sandpiper; Actitis hypoleucos",
				"phone": "+65",
				"region": "asia-pacific"
			},
			{
				"address": "20 Springwood Avenue, Pasir Panjang SG-Singapore 1.27831, 103.79077",
				"id": "46",
				"image": "1",
				"lat": 1.278311,
				"lng": 103.790773,
				"name": "Rose-ringed Parakeet; Psittacula krameri",
				"phone": "+65",
				"region": "asia-pacific"
			},
			{
				"address": "Ulu Pandan Park Connector, Jurong SG-Singapore 1.32680, 103.75034",
				"id": "47",
				"image": "2",
				"lat": 1.326797,
				"lng": 103.750339,
				"name": "Gray-headed Fish-Eagle; Haliaeetus ichthyaetus",
				"phone": "+65",
				"region": "asia-pacific"
			},
			{
				"address": "Seletar Dam (Yishun Dam)",
				"id": "48",
				"image": "1",
				"lat": 1.423116,
				"lng": 103.8629908,
				"name": "White-breasted Waterhen; Amaurornis phoenicurus",
				"phone": "+65",
				"region": "asia-pacific"
			},
			{
				"address": "Bukit Timah",
				"id": "49",
				"image": "1",
				"lat": 1.3186899,
				"lng": 103.8040487,
				"name": "Red Junglefowl; Gallus gallus",
				"phone": "+65",
				"region": "asia-pacific"
			},
			{
				"address": "21 Bulim Drive, Singapore, SG (1.36, 103.708)",
				"id": "50",
				"image": "1",
				"lat": 1.360386,
				"lng": 103.7075287,
				"name": "Brahminy Kite; Haliastur indus",
				"phone": "+65",
				"region": "asia-pacific"
			},
			{
				"address": "Sakra Road junction with Sakra Avenue",
				"id": "51",
				"image": "3",
				"lat": 1.261517,
				"lng": 103.700925,
				"name": "House Sparrow; Passer domesticus",
				"phone": "+65",
				"region": "asia-pacific"
			},
			{
				"address": "Southern Ridges",
				"id": "52",
				"image": "1",
				"lat": 1.2799463,
				"lng": 103.8037312,
				"name": "Dollarbird; Eurystomus orientalis",
				"phone": "+65",
				"region": "asia-pacific"
			},
			{
				"address": "Choa Chu Kang Christian Cemetery",
				"id": "53",
				"image": "1",
				"lat": 1.3689271,
				"lng": 103.695614,
				"name": "Pacific Swift; Apus pacificus",
				"phone": "+65",
				"region": "asia-pacific"
			},
			{
				"address": "20 Jambol Place, Pasir Panjang SG-Singapore 1.27957, 103.78997",
				"id": "54",
				"image": "2",
				"lat": 1.279571,
				"lng": 103.78997,
				"name": "Red-whiskered Bulbul; Pycnonotus jocosus",
				"phone": "+65",
				"region": "asia-pacific"
			},
			{
				"address": "Singapore Botanic Gardens Eco Lake",
				"id": "55",
				"image": "2",
				"lat": 1.3213429,
				"lng": 103.8165361,
				"name": "Stork-billed Kingfisher; Pelargopsis capensis",
				"phone": "+65",
				"region": "asia-pacific"
			},
			{
				"address": "4 Wareham Road, Mountbatten SG-Singapore (1.3079,103.8944)",
				"id": "56",
				"image": "1",
				"lat": 1.307949,
				"lng": 103.894442,
				"name": "Oriental Honey-buzzard; Pernis ptilorhynchus",
				"phone": "+65",
				"region": "asia-pacific"
			},
			{
				"address": "Sungei Buloh Wetland Reserve, Lim Chu Kang SG-Singapore 1.44933, 103.72678",
				"id": "57",
				"image": "2",
				"lat": 1.449331,
				"lng": 103.726776,
				"name": "Great-billed Heron; Ardea sumatrana",
				"phone": "+65",
				"region": "asia-pacific"
			},
			{
				"address": "Ang Mo Kio Town Garden West",
				"id": "58",
				"image": "1",
				"lat": 1.3743799,
				"lng": 103.8424355,
				"name": "Asian Koel; Eudynamys scolopaceus",
				"phone": "+65",
				"region": "asia-pacific"
			},
			{
				"address": "SBWR Hide 1D",
				"id": "59",
				"image": "2",
				"lat": 1.4473377,
				"lng": 103.7253034,
				"name": "Purple Heron; Ardea purpurea",
				"phone": "+65",
				"region": "asia-pacific"
			},
			{
				"address": "Singapore Quarry at Dairy Farm Nature Park",
				"id": "60",
				"image": "1",
				"lat": 1.3561247,
				"lng": 103.770166,
				"name": "Siberian Blue Robin; Larvivora cyane",
				"phone": "+65",
				"region": "asia-pacific"
			},
			{
				"address": "Fort Canning Park",
				"id": "61",
				"image": "1",
				"lat": 1.2940966,
				"lng": 103.8465779,
				"name": "Lineated Barbet; Psilopogon lineatus",
				"phone": "+65",
				"region": "asia-pacific"
			},
			{
				"address": "Eco Lake",
				"id": "62",
				"image": "2",
				"lat": 1.32176,
				"lng": 103.816545,
				"name": "Gray-headed Fish-Eagle; Haliaeetus ichthyaetus",
				"phone": "+65",
				"region": "asia-pacific"
			},
			{
				"address": "Marina East Drive, Singapore, SG (1.295, 103.885)",
				"id": "63",
				"image": "1",
				"lat": 1.2946079,
				"lng": 103.8854524,
				"name": "Lesser Sand-Plover; Charadrius mongolus",
				"phone": "+65",
				"region": "asia-pacific"
			},
			{
				"address": "10 Jalan Batu, Singapore, SG (1.302, 103.882)",
				"id": "64",
				"image": "1",
				"lat": 1.30249,
				"lng": 103.8820167,
				"name": "Little Bronze-Cuckoo; Chrysococcyx minutillus",
				"phone": "+65",
				"region": "asia-pacific"
			},
			{
				"address": "Yishun Street 11, Block 153",
				"id": "65",
				"image": "1",
				"lat": 1.4312862,
				"lng": 103.8338434,
				"name": "House Crow; Corvus splendens",
				"phone": "+65",
				"region": "asia-pacific"
			},
			{
				"address": "Choa Chu Kang Park",
				"id": "66",
				"image": "1",
				"lat": 1.3862313,
				"lng": 103.7471259,
				"name": "Zebra Dove; Geopelia striata",
				"phone": "+65",
				"region": "asia-pacific"
			},
			{
				"address": "Botanic gardens",
				"id": "67",
				"image": "1",
				"lat": 1.308752,
				"lng": 103.8157567,
				"name": "Common Kingfisher; Alcedo atthis",
				"phone": "+65",
				"region": "asia-pacific"
			},
			{
				"address": "Coronation Road - State land",
				"id": "68",
				"image": "1",
				"lat": 1.3199081,
				"lng": 103.7958685,
				"name": "Brown Shrike; Lanius cristatus",
				"phone": "+65",
				"region": "asia-pacific"
			},
			{
				"address": "118C Jalan Membina, Singapore, SG (1.282, 103.826)",
				"id": "69",
				"image": "1",
				"lat": 1.28212,
				"lng": 103.8260872,
				"name": "Golden-bellied Gerygone; Gerygone sulphurea",
				"phone": "+65",
				"region": "asia-pacific"
			},
			{
				"address": "Greenleaf View",
				"id": "70",
				"image": "1",
				"lat": 1.3212789,
				"lng": 103.787198,
				"name": "Tanimbar Corella; Cacatua goffiniana",
				"phone": "+65",
				"region": "asia-pacific"
			},
			{
				"address": "Henderson Waves",
				"id": "71",
				"image": "3",
				"lat": 1.2758965,
				"lng": 103.8155222,
				"name": "Crested Serpent-Eagle; Spilornis cheela",
				"phone": "+65",
				"region": "asia-pacific"
			},
			{
				"address": "Pine Grove, Holland Village SG-Singapore 1.31753, 103.77297",
				"id": "72",
				"image": "1",
				"lat": 1.317526,
				"lng": 103.772973,
				"name": "Striated Heron; Butorides striata",
				"phone": "+65",
				"region": "asia-pacific"
			},
			{
				"address": "Bedok Reservoir Park",
				"id": "73",
				"image": "1",
				"lat": 1.3417956,
				"lng": 103.9317776,
				"name": "Large-tailed Nightjar; Caprimulgus macrurus",
				"phone": "+65",
				"region": "asia-pacific"
			},
			{
				"address": "Pelton Canal",
				"id": "74",
				"image": "1",
				"lat": 1.3241184,
				"lng": 103.8831642,
				"name": "Zebra Dove; Geopelia striata",
				"phone": "+65",
				"region": "asia-pacific"
			},
			{
				"address": "Lorong Halus",
				"id": "75",
				"image": "1",
				"lat": 1.391507,
				"lng": 103.925813,
				"name": "Savanna Nightjar; Caprimulgus affinis",
				"phone": "+65",
				"region": "asia-pacific"
			},
			{
				"address": "Clementi Woods Park",
				"id": "76",
				"image": "1",
				"lat": 1.3012507,
				"lng": 103.7667221,
				"name": "Lineated Barbet; Psilopogon lineatus",
				"phone": "+65",
				"region": "asia-pacific"
			},
			{
				"address": "Ulu Pandan Park Connector, Clementi SG-Singapore 1.32471, 103.75749",
				"id": "77",
				"image": "1",
				"lat": 1.324712,
				"lng": 103.757492,
				"name": "Pied Triller; Lalage nigra",
				"phone": "+65",
				"region": "asia-pacific"
			},
			{
				"address": "Kent Vale, National University of Singapore",
				"id": "78",
				"image": "1",
				"lat": 1.3028859,
				"lng": 103.7694118,
				"name": "Asian Brown Flycatcher; Muscicapa dauurica",
				"phone": "+65",
				"region": "asia-pacific"
			},
			{
				"address": "Eastwood Estate",
				"id": "79",
				"image": "1",
				"lat": 1.3219951,
				"lng": 103.9564121,
				"name": "Little Bronze-Cuckoo; Chrysococcyx minutillus",
				"phone": "+65",
				"region": "asia-pacific"
			},
			{
				"address": "Coney Island (Serangoon Island)",
				"id": "80",
				"image": "1",
				"lat": 1.4095568,
				"lng": 103.9221025,
				"name": "Laced Woodpecker; Picus vittatus",
				"phone": "+65",
				"region": "asia-pacific"
			},
			{
				"address": "47a Tuas South Avenue 1, Singapore, SG (1.325, 103.63)",
				"id": "81",
				"image": "2",
				"lat": 1.3246364,
				"lng": 103.6302261,
				"name": "Black-winged Kite; Elanus caeruleus",
				"phone": "+65",
				"region": "asia-pacific"
			},
			{
				"address": "112 Arthur Road, Mountbatten SG-Singapore 1.30197, 103.88808",
				"id": "82",
				"image": "1",
				"lat": 1.301975,
				"lng": 103.888084,
				"name": "Scaly-breasted Munia; Lonchura punctulata",
				"phone": "+65",
				"region": "asia-pacific"
			},
			{
				"address": "Tuas South AVE 8/9",
				"id": "83",
				"image": "1",
				"lat": 1.2943388,
				"lng": 103.6399189,
				"name": "Blue-tailed Bee-eater; Merops philippinus",
				"phone": "+65",
				"region": "asia-pacific"
			},
			{
				"address": "SkyVille@Dawson",
				"id": "84",
				"image": "2",
				"lat": 1.295758,
				"lng": 103.8099378,
				"name": "Gray-rumped Treeswift; Hemiprocne longipennis",
				"phone": "+65",
				"region": "asia-pacific"
			},
			{
				"address": "Kranji Marsh",
				"id": "85",
				"image": "2",
				"lat": 1.4182693,
				"lng": 103.72886,
				"name": "Red-legged Crake; Rallina fasciata",
				"phone": "+65",
				"region": "asia-pacific"
			},
			{
				"address": "Dillenia Hut",
				"id": "86",
				"image": "1",
				"lat": 1.3555167,
				"lng": 103.8046563,
				"name": "Short-tailed Babbler; Pellorneum malaccense",
				"phone": "+65",
				"region": "asia-pacific"
			},
			{
				"address": "63 Bishan Street 21, Bishan SG-Singapore (1.3499,103.8471)",
				"id": "87",
				"image": "1",
				"lat": 1.349882,
				"lng": 103.847093,
				"name": "Pallas's Grasshopper Warbler; Helopsaltes certhiola",
				"phone": "+65",
				"region": "asia-pacific"
			},
			{
				"address": "Marina East",
				"id": "88",
				"image": "2",
				"lat": 1.28236,
				"lng": 103.87595,
				"name": "Whiskered Tern; Chlidonias hybrida",
				"phone": "+65",
				"region": "asia-pacific"
			},
			{
				"address": "Fragrant Garden",
				"id": "89",
				"image": "2",
				"lat": 1.317503,
				"lng": 103.8161123,
				"name": "Red-legged Crake; Rallina fasciata",
				"phone": "+65",
				"region": "asia-pacific"
			},
			{
				"address": "Punggol Park",
				"id": "90",
				"image": "1",
				"lat": 1.3771007,
				"lng": 103.8985379,
				"name": "Asian Koel; Eudynamys scolopaceus",
				"phone": "+65",
				"region": "asia-pacific"
			},
			{
				"address": "Satay by the Bay",
				"id": "91",
				"image": "1",
				"lat": 1.2827183,
				"lng": 103.8681445,
				"name": "Little Tern; Sternula albifrons",
				"phone": "+65",
				"region": "asia-pacific"
			},
			{
				"address": "29A Chai Chee Avenue, Bedok SG-Singapore 1.32454, 103.92361",
				"id": "92",
				"image": "1",
				"lat": 1.324535,
				"lng": 103.923608,
				"name": "Oriental Pied-Hornbill; Anthracoceros albirostris",
				"phone": "+65",
				"region": "asia-pacific"
			},
			{
				"address": "14 Dover Close East, Commonwealth SG-Singapore 1.30563, 103.78573",
				"id": "93",
				"image": "1",
				"lat": 1.305633,
				"lng": 103.785725,
				"name": "Red Junglefowl; Gallus gallus",
				"phone": "+65",
				"region": "asia-pacific"
			},
			{
				"address": "Singapore Botanic Gardens--Gallop extension, incl COMO adv grove",
				"id": "94",
				"image": "1",
				"lat": 1.3127357,
				"lng": 103.8119338,
				"name": "Blue-throated Bee-eater; Merops viridis",
				"phone": "+65",
				"region": "asia-pacific"
			},
			{
				"address": "Simpang Kiri Park Connector",
				"id": "95",
				"image": "1",
				"lat": 1.456457,
				"lng": 103.8408422,
				"name": "Common Sandpiper; Actitis hypoleucos",
				"phone": "+65",
				"region": "asia-pacific"
			},
			{
				"address": "Pulau Ubin: Chek Jawa Wetlands",
				"id": "96",
				"image": "2",
				"lat": 1.4084983,
				"lng": 103.9913517,
				"name": "Black-bellied Plover; Pluvialis squatarola",
				"phone": "+65",
				"region": "asia-pacific"
			},
			{
				"address": "Sembawang Park",
				"id": "97",
				"image": "2",
				"lat": 1.4617097,
				"lng": 103.8365936,
				"name": "Plume-toed Swiftlet; Collocalia affinis",
				"phone": "+65",
				"region": "asia-pacific"
			},
			{
				"address": "Henderson Waves Bridge",
				"id": "98",
				"image": "2",
				"lat": 1.276208,
				"lng": 103.815261,
				"name": "Chinese Sparrowhawk; Accipiter soloensis",
				"phone": "+65",
				"region": "asia-pacific"
			},
			{
				"address": "Sentosa Island: Nature Park area",
				"id": "99",
				"image": "1",
				"lat": 1.2565544,
				"lng": 103.8150055,
				"name": "Tanimbar Corella; Cacatua goffiniana",
				"phone": "+65",
				"region": "asia-pacific"
			},
			{
				"address": "14 Dover Close East, Commonwealth SG-Singapore 1.30570, 103.78570",
				"id": "100",
				"image": "1",
				"lat": 1.305703,
				"lng": 103.785701,
				"name": "Blue-throated Bee-eater; Merops viridis",
				"phone": "+65",
				"region": "asia-pacific"
			},
			{
				"address": "Rifle Range link, Singapore, SG (1.357, 103.805)",
				"id": "101",
				"image": "2",
				"lat": 1.3571513,
				"lng": 103.8052524,
				"name": "Thick-billed Green-Pigeon; Treron curvirostra",
				"phone": "+65",
				"region": "asia-pacific"
			},
			{
				"address": "CCNR--Jelutong Tower",
				"id": "102",
				"image": "2",
				"lat": 1.3514215,
				"lng": 103.8064206,
				"name": "Cream-vented Bulbul; Pycnonotus simplex",
				"phone": "+65",
				"region": "asia-pacific"
			},
			{
				"address": "Telok Blangah Hill Park",
				"id": "103",
				"image": "2",
				"lat": 1.2789166,
				"lng": 103.8107693,
				"name": "Chinese Sparrowhawk; Accipiter soloensis",
				"phone": "+65",
				"region": "asia-pacific"
			},
			{
				"address": "Drango Trail",
				"id": "104",
				"image": "2",
				"lat": 1.3588942,
				"lng": 103.8202429,
				"name": "Gray-headed Fish-Eagle; Haliaeetus ichthyaetus",
				"phone": "+65",
				"region": "asia-pacific"
			},
			{
				"address": "Bukit Brown Cemetery",
				"id": "105",
				"image": "1",
				"lat": 1.3359838,
				"lng": 103.8230538,
				"name": "White-crested Laughingthrush; Garrulax leucolophus",
				"phone": "+65",
				"region": "asia-pacific"
			},
			{
				"address": "Singapore Zoo",
				"id": "106",
				"image": "2",
				"lat": 1.4045597,
				"lng": 103.7923801,
				"name": "Large-billed Crow; Corvus macrorhynchos",
				"phone": "+65",
				"region": "asia-pacific"
			},
			{
				"address": "Pulau Ubin",
				"id": "107",
				"image": "1",
				"lat": 1.4036891,
				"lng": 103.9608593,
				"name": "Pacific Swift; Apus pacificus",
				"phone": "+65",
				"region": "asia-pacific"
			},
			{
				"address": "419 Choa Chu Kang Avenue 4, Singapore, SG (1.382, 103.742)",
				"id": "108",
				"image": "1",
				"lat": 1.3817494,
				"lng": 103.7415162,
				"name": "Rose-ringed Parakeet; Psittacula krameri",
				"phone": "+65",
				"region": "asia-pacific"
			},
			{
				"address": "Gardens by the Bay, Marina SG-Singapore 1.28227, 103.86894",
				"id": "109",
				"image": "1",
				"lat": 1.28227,
				"lng": 103.868937,
				"name": "Asian Koel; Eudynamys scolopaceus",
				"phone": "+65",
				"region": "asia-pacific"
			},
			{
				"address": "Pang Sua Park Connector",
				"id": "110",
				"image": "1",
				"lat": 1.3829627,
				"lng": 103.7558022,
				"name": "Zebra Dove; Geopelia striata",
				"phone": "+65",
				"region": "asia-pacific"
			},
			{
				"address": "Bukit Sedap",
				"id": "111",
				"image": "1",
				"lat": 1.3199984,
				"lng": 103.7829391,
				"name": "Blue-throated Bee-eater; Merops viridis",
				"phone": "+65",
				"region": "asia-pacific"
			},
			{
				"address": "Lorong Halus Wetland (inc. Serangoon Reservoir and former 'Serangoon')",
				"id": "112",
				"image": "1",
				"lat": 1.3957264,
				"lng": 103.9257288,
				"name": "Red-wattled Lapwing; Vanellus indicus",
				"phone": "+65",
				"region": "asia-pacific"
			},
			{
				"address": "Pine Grove, Holland Village SG-Singapore 1.31751, 103.77306",
				"id": "113",
				"image": "2",
				"lat": 1.317514,
				"lng": 103.773063,
				"name": "Pied Imperial-Pigeon; Ducula bicolor",
				"phone": "+65",
				"region": "asia-pacific"
			},
			{
				"address": "Bidadari",
				"id": "114",
				"image": "2",
				"lat": 1.3414326,
				"lng": 103.8741338,
				"name": "House Swift; Apus nipalensis",
				"phone": "+65",
				"region": "asia-pacific"
			}
		],
		"regions": [
			{
				"coords": {
					"lat": 0.0524811,
					"lng": 127.6560787
				},
				"id": "asia-pacific",
				"name": "Asia Pacific",
				"zoom": 3.0
			}
		],
		"test": [
			{
				"random words": "thaoihsiod",
				"numbers": 12319832198
			}
		]
	}
}